Transaction_date,Product,Price,Payment_Type,Name,City,State,Country,Account_Created,Last_Login,Latitude,Longitude
01/02/2009 6:17,Product1,1200,Mastercard,carolina,Basildon,England,United Kingdom,01/02/2009 6:00,01/02/2009 6:08,51.5,-1.1166667
01/02/2009 4:53,Product1,1200,Visa,Betina,Parkville                   ,MO,United States,01/02/2009 4:42,01/02/2009 7:49,39.195,-94.68194
01/02/2009 13:08,Product1,1200,Mastercard,Federica e Andrea,Astoria                     ,OR,United States,01/01/2009 16:21,01/03/2009 12:32,46.18806,-123.83
01/03/2009 14:44,Product1,1200,Visa,Gouya,Echuca,Victoria,Australia,9/25/05 21:13,01/03/2009 14:22,-36.1333333,144.75
01/04/2009 12:56,Product2,3600,Visa,Gerd W ,Cahaba Heights              ,AL,United States,11/15/08 15:47,01/04/2009 12:45,33.52056,-86.8025
01/04/2009 13:19,Product1,1200,Visa,LAURENCE,Mickleton                   ,NJ,United States,9/24/08 15:19,01/04/2009 13:04,39.79,-75.23806
01/04/2009 20:11,Product1,1200,Mastercard,Fleur,Peoria                      ,IL,United States,01/03/2009 9:38,01/04/2009 19:45,40.69361,-89.58889
01/02/2009 20:09,Product1,1200,Mastercard,adam,Martin                      ,TN,United States,01/02/2009 17:43,01/04/2009 20:01,36.34333,-88.85028
01/04/2009 13:17,Product1,1200,Mastercard,Renee Elisabeth,Tel Aviv,Tel Aviv,Israel,01/04/2009 13:03,01/04/2009 22:10,32.0666667,34.7666667
01/04/2009 14:11,Product1,1200,Visa,Aidan,Chatou,Ile-de-France,France,06/03/2008 4:22,01/05/2009 1:17,48.8833333,2.15
01/05/2009 2:42,Product1,1200,Diners,Stacy,New York                    ,NY,United States,01/05/2009 2:23,01/05/2009 4:59,40.71417,-74.00639
01/05/2009 5:39,Product1,1200,Amex,Heidi,Eindhoven,Noord-Brabant,Netherlands,01/05/2009 4:55,01/05/2009 8:15,51.45,5.4666667
01/02/2009 9:16,Product1,1200,Mastercard,Sean ,Shavano Park                ,TX,United States,01/02/2009 8:32,01/05/2009 9:05,29.42389,-98.49333
01/05/2009 10:08,Product1,1200,Visa,Georgia,Eagle                       ,ID,United States,11/11/2008 15:53,01/05/2009 10:05,43.69556,-116.35306
01/02/2009 14:18,Product1,1200,Visa,Richard,Riverside                   ,NJ,United States,12/09/2008 12:07,01/05/2009 11:01,40.03222,-74.95778
01/04/2009 1:05,Product1,1200,Diners,Leanne,Julianstown,Meath,Ireland,01/04/2009 0:00,01/05/2009 13:36,53.6772222,-6.3191667
01/05/2009 11:37,Product1,1200,Visa,Janet,Ottawa,Ontario,Canada,01/05/2009 9:35,01/05/2009 19:24,45.4166667,-75.7
01/06/2009 5:02,Product1,1200,Diners,barbara,Hyderabad,Andhra Pradesh,India,01/06/2009 2:41,01/06/2009 7:52,17.3833333,78.4666667
01/06/2009 7:45,Product2,3600,Visa,Sabine,London,England,United Kingdom,01/06/2009 7:00,01/06/2009 9:17,51.52721,0.14559
01/02/2009 7:35,Product1,1200,Diners,Hani,Salt Lake City              ,UT,United States,12/30/08 5:44,01/06/2009 10:52,40.76083,-111.89028
01/06/2009 12:56,Product1,1200,Visa,Jeremy,Manchester,England,United Kingdom,01/06/2009 10:58,01/06/2009 13:31,53.5,-2.2166667
01/01/2009 11:05,Product1,1200,Diners,Janis,Ballynora,Cork,Ireland,12/10/2007 12:37,01/07/2009 1:52,51.8630556,-8.58
01/05/2009 4:10,Product1,1200,Mastercard,Nicola,Roodepoort,Gauteng,South Africa,01/05/2009 2:33,01/07/2009 5:13,-26.1666667,27.8666667
01/06/2009 7:18,Product1,1200,Visa,asuman,Chula Vista                 ,CA,United States,01/06/2009 7:07,01/07/2009 7:08,32.64,-117.08333
01/02/2009 1:11,Product1,1200,Mastercard,Lena,Kuopio,Ita-Suomen Laani,Finland,12/31/08 2:48,01/07/2009 10:20,62.9,27.6833333
01/01/2009 2:24,Product1,1200,Visa,Lisa,Sugar Land                  ,TX,United States,01/01/2009 1:56,01/07/2009 10:52,29.61944,-95.63472
01/07/2009 8:08,Product1,1200,Diners,Bryan Kerrene,New York                    ,NY,United States,01/07/2009 7:39,01/07/2009 12:38,40.71417,-74.00639
01/02/2009 2:57,Product1,1200,Visa,chris,London,England,United Kingdom,01/03/2008 7:23,01/07/2009 13:14,51.52721,0.14559
01/01/2009 20:21,Product1,1200,Visa,Maxine,Morton                      ,IL,United States,10/24/08 6:48,01/07/2009 20:49,40.61278,-89.45917
01/08/2009 0:42,Product1,1200,Visa,Family,Los Gatos                   ,CA,United States,01/08/2009 0:28,01/08/2009 3:39,37.22667,-121.97361
01/08/2009 3:56,Product1,1200,Mastercard,Katherine,New York                    ,NY,United States,01/08/2009 3:33,01/08/2009 6:19,40.71417,-74.00639
01/08/2009 3:16,Product1,1200,Mastercard,Linda,Miami                       ,FL,United States,01/08/2009 3:06,01/08/2009 6:34,25.77389,-80.19389
01/08/2009 1:59,Product1,1200,Mastercard,SYLVIA,Vesenaz,Geneve,Switzerland,11/28/07 11:56,01/08/2009 7:20,46.2333333,6.2
01/03/2009 9:03,Product1,1200,Diners,Sheila,Brooklyn                    ,NY,United States,01/03/2009 8:47,01/08/2009 10:38,40.65,-73.95
01/05/2009 13:17,Product1,1200,Mastercard,Stephanie,Badhoevedorp,Noord-Holland,Netherlands,01/05/2009 12:45,01/08/2009 11:45,52.3333333,4.7833333
01/06/2009 7:46,Product1,1200,Amex,Kelly,Reston                      ,VA,United States,01/06/2009 7:30,01/08/2009 12:40,38.96861,-77.34139
01/05/2009 20:00,Product2,3600,Visa,James,Burpengary,Queensland,Australia,12/10/2008 19:53,01/08/2009 17:58,-27.1666667,152.95
01/08/2009 16:24,Product1,1200,Visa,jennifer,Phoenix                     ,AZ,United States,01/08/2009 15:57,01/08/2009 18:30,33.44833,-112.07333
01/09/2009 6:39,Product1,1200,Mastercard,Anneli,Houston                     ,TX,United States,01/09/2009 5:09,01/09/2009 7:11,29.76306,-95.36306
01/06/2009 22:19,Product2,3600,Amex,Ritz,Pittsfield                  ,VT,United States,01/06/2009 12:00,01/09/2009 10:05,43.77222,-72.81333
01/06/2009 23:00,Product2,3600,Amex,Sylvia,Pittsfield                  ,VT,United States,01/06/2009 12:00,01/09/2009 10:05,43.77222,-72.81333
01/07/2009 7:44,Product1,1200,Mastercard,Marie,Ball Ground                 ,GA,United States,01/07/2009 5:35,01/09/2009 10:52,34.33806,-84.37667
01/03/2009 13:24,Product1,1200,Visa,Mehmet Fatih,Helsingor,Frederiksborg,Denmark,01/03/2009 12:47,01/09/2009 11:14,56.0333333,12.6166667
01/07/2009 15:12,Product2,3600,Visa,Anabela,Flossmoor                   ,IL,United States,01/05/2009 19:55,01/09/2009 16:03,41.54278,-87.68472
01/07/2009 20:15,Product1,1200,Amex,Nicole,Houston                     ,TX,United States,01/07/2009 17:17,01/09/2009 20:02,29.76306,-95.36306
01/03/2009 10:11,Product2,3600,Visa,Christiane ,Delray Beach                ,FL,United States,01/03/2009 9:27,01/10/2009 9:46,26.46111,-80.07306
01/09/2009 15:58,Product1,1200,Mastercard,Sari,Newbury,England,United Kingdom,01/09/2009 14:53,01/10/2009 13:16,51.4,-1.3166667
01/03/2009 13:11,Product1,1200,Mastercard,simone,Kobenhavn,Kobenhavn,Denmark,10/31/08 0:31,01/10/2009 13:24,55.6666667,12.5833333
01/10/2009 12:57,Product1,1200,Amex,Vanessa,Sandy Springs               ,GA,United States,02/07/2007 20:16,01/10/2009 14:09,33.92417,-84.37861
01/10/2009 14:43,Product1,1200,Diners,Anupam,Kinsaley,Dublin,Ireland,01/09/2009 11:38,01/10/2009 14:37,53.4247222,-6.1758333
01/10/2009 12:05,Product1,1200,Visa,Karina,Fort Lauderdale             ,FL,United States,07/01/2008 12:53,01/10/2009 16:33,26.12194,-80.14361
01/06/2009 1:20,Product1,1200,Mastercard,Frank,Melbourne,Victoria,Australia,01/02/2009 17:51,01/10/2009 18:27,-37.8166667,144.9666667
01/10/2009 14:56,Product1,1200,Visa,Angela,Ankeny                      ,IA,United States,01/08/2009 3:06,01/10/2009 19:41,41.72972,-93.60556
01/07/2009 10:01,Product1,1200,Visa,Darren,Pittsboro                   ,NC,United States,01/07/2009 9:04,01/10/2009 20:02,35.72,-79.1775
01/01/2009 1:26,Product1,1200,Mastercard,Nikki,New Rochelle                ,NY,United States,01/01/2009 0:58,01/10/2009 21:31,40.91139,-73.78278
01/11/2009 2:04,Product1,1200,Visa,chris,Gold Coast,Queensland,Australia,01/11/2009 0:33,01/11/2009 2:11,-28,153.4333333
01/11/2009 14:17,Product1,1200,Visa,Stephanie,Brussels,Brussels (Bruxelles),Belgium,01/11/2009 13:39,01/11/2009 13:39,50.8333333,4.3333333
01/10/2009 21:38,Product1,1200,Visa,Anushka,Maple Ridge District Municipality,British Columbia,Canada,01/10/2009 21:17,01/11/2009 19:32,49.25,-122.5
01/07/2009 6:18,Product1,1200,Mastercard,June ,Beachwood                   ,OH,United States,2/23/06 11:56,01/11/2009 19:35,41.46444,-81.50889
01/04/2009 8:39,Product2,3600,Diners,Baybars,Prince Albert,Saskatchewan,Canada,01/03/2009 17:17,01/11/2009 21:05,53.2,-105.75
01/05/2009 0:31,Product1,1200,Mastercard,Bonnie,Saltsjobaden,Stockholm,Sweden,01/04/2009 23:45,01/12/2009 0:37,59.2833333,18.3
01/02/2009 6:07,Product1,1200,Visa,Cindy ,Kemble,England,United Kingdom,12/30/08 10:21,01/12/2009 2:24,51.6766667,-2.0180556
01/12/2009 3:25,Product1,1200,Mastercard,chrissy,W Lebanon                   ,NH,United States,01/12/2009 3:12,01/12/2009 3:22,43.64917,-72.31083
01/04/2009 13:56,Product1,1200,Mastercard,Tamar,Headley,England,United Kingdom,11/29/07 9:23,01/12/2009 5:38,51.1166667,-0.8166667
01/07/2009 0:12,Product2,3600,Mastercard,Deirdre,Lausanne,Vaud,Switzerland,12/01/2008 6:25,01/12/2009 6:55,46.5333333,6.6666667
01/12/2009 5:18,Product1,1200,Mastercard,Bernadett,Southampton,England,United Kingdom,01/12/2009 4:45,01/12/2009 8:08,50.9,-1.4
01/08/2009 15:16,Product1,1200,Visa,Dottie,Woodsboro                   ,MD,United States,01/08/2009 14:56,01/12/2009 9:29,39.53306,-77.315
01/11/2009 11:33,Product1,1200,Visa,Stefan,Stavanger,Rogaland,Norway,01/11/2009 9:02,01/12/2009 10:37,58.9666667,5.75
01/07/2009 20:22,Product1,1200,Visa,Gina,Red Deer,Alberta,Canada,11/23/08 19:30,01/12/2009 12:24,52.2666667,-113.8
01/02/2009 22:00,Product1,1200,Diners,Lynne,Memphis                     ,TN,United States,01/02/2009 21:04,01/12/2009 13:18,35.14944,-90.04889
01/05/2009 13:52,Product1,1200,Mastercard,Tammy,Morges,Vaud,Switzerland,01/05/2009 5:55,01/12/2009 14:04,46.5166667,6.5
01/08/2009 20:32,Product1,1200,Visa,Kim,Calgary,Alberta,Canada,01/08/2009 20:21,01/12/2009 14:07,51.0833333,-114.0833333
01/08/2009 13:34,Product1,1200,Visa,Bruce,Belleville,Ontario,Canada,01/06/2009 14:38,01/12/2009 18:31,44.1666667,-77.3833333
01/11/2009 13:08,Product1,1200,Visa,Rosa Maria,Cincinnati                  ,OH,United States,01/11/2009 12:38,01/12/2009 18:44,39.16194,-84.45694
01/12/2009 19:04,Product1,1200,Visa,Lydia,Comox,British Columbia,Canada,9/20/08 20:53,01/12/2009 19:01,49.6833333,-124.9333333
01/12/2009 13:41,Product1,1200,Visa,Eric,Gasperich,Luxembourg,Luxembourg,01/12/2009 13:16,1/13/09 1:03,49.5855556,6.1230556
01/11/2009 10:38,Product1,1200,Mastercard,AnaPaula,Helens Bay,Northern Ireland,United Kingdom,09/04/2008 9:26,1/13/09 2:36,54.65,-5.7333333
1/13/09 5:57,Product1,1200,Visa,Robin,Milan,Lombardy,Italy,10/15/08 5:31,1/13/09 5:55,45.4666667,9.2
1/13/09 6:13,Product1,1200,Visa,Gitte,Staten Island               ,NY,United States,1/13/09 5:17,1/13/09 7:33,40.63667,-74.15917
01/08/2009 13:14,Product1,1200,Visa,Dr. Claudia,Oslo,Oslo,Norway,01/08/2009 12:47,1/13/09 10:49,59.9166667,10.75
01/02/2009 11:41,Product1,1200,Visa,Crystal,Farmington,Michigan,United States,01/01/2009 12:00,1/13/09 18:34,42.46444,-83.37639
01/07/2009 19:50,Product1,1200,Diners,Delphine,Santa Monica                ,CA,United States,01/03/2009 12:04,1/13/09 20:17,34.01944,-118.49028
01/01/2009 20:28,Product1,1200,Visa,nathalie,Calgary,Alberta,Canada,01/01/2009 20:11,1/13/09 21:11,51.0833333,-114.0833333
01/03/2009 15:22,Product1,1200,Mastercard,Lindi,Vancouver,British Columbia,Canada,2/20/08 22:45,1/13/09 23:02,49.25,-123.1333333
01/12/2009 3:03,Product2,3600,Mastercard,Valda,Irvine                      ,CA,United States,01/12/2009 2:48,1/14/09 1:07,33.66944,-117.82222
01/05/2009 8:58,Product2,3600,Mastercard,Marcia,Telgte,Nordrhein-Westfalen,Germany,09/01/2008 3:39,1/14/09 2:07,52.3333333,7.9
01/10/2009 14:03,Product1,1200,Mastercard,Kevin,Cheltenham,England,United Kingdom,3/13/06 4:56,1/14/09 2:22,51.9,-2.0833333
1/13/09 11:26,Product1,1200,Visa,Clare,Keller                      ,VA,United States,1/13/09 11:15,1/14/09 2:39,37.61917,-75.76417
01/02/2009 12:18,Product1,1200,Visa,Alice,Nakskov,Storstrom,Denmark,12/05/2007 11:37,1/14/09 4:05,54.8333333,11.15
1/14/09 4:54,Product1,1200,Mastercard,ZENA,Honolulu                    ,HI,United States,1/14/09 4:34,1/14/09 4:43,21.30694,-157.85833
01/06/2009 17:15,Product1,1200,Visa,Andrea,Bubuieci,Chisinau,Moldova,12/24/08 17:31,1/14/09 10:27,46.985,28.9425
01/03/2009 13:56,Product1,1200,Visa,Rennae,Amelia Island               ,FL,United States,01/03/2009 12:30,1/14/09 13:03,30.66944,-81.46278
01/04/2009 7:54,Product1,1200,Visa,Gerhard,Alliston,Ontario,Canada,10/21/05 21:49,1/14/09 13:06,44.15,-79.8666667
01/12/2009 7:28,Product1,1200,Amex,Megan,La Alberca,Murcia,Spain,12/10/2008 16:41,1/14/09 13:44,37.9333333,-1.1333333
01/06/2009 15:15,Product1,1200,Mastercard,Danielle,Rathgar,Dublin,Ireland,01/06/2009 14:59,1/14/09 14:33,53.3122222,-6.2683333
1/13/09 23:56,Product1,1200,Mastercard,Tod,Coral Gables                ,FL,United States,1/13/09 23:13,1/14/09 15:17,25.72111,-80.26861
1/14/09 19:32,Product1,1200,Visa,Janaina,Miami                       ,FL,United States,12/16/08 22:19,1/14/09 19:28,25.77389,-80.19389
01/06/2009 21:13,Product1,1200,Visa,Kofi,Vancouver,British Columbia,Canada,01/07/2008 21:16,1/14/09 20:50,49.25,-123.1333333
1/14/09 11:19,Product1,1200,Visa,Jennifer,Jumeira,Dubayy,United Arab Emirates,1/14/09 10:44,1/14/09 21:26,25.2097222,55.2477778
1/13/09 19:39,Product1,1200,Visa,Jolene ,Englewood                   ,CO,United States,01/06/2009 22:00,1/14/09 22:02,39.64778,-104.98722
01/08/2009 7:26,Product1,1200,Mastercard,anne,Bournemouth,England,United Kingdom,1/25/08 15:46,1/15/09 1:36,50.7166667,-1.8833333
1/15/09 2:40,Product1,1200,Mastercard,Alexis,Genoa                       ,IL,United States,1/15/09 2:04,1/15/09 2:04,42.09722,-88.69278
01/12/2009 6:40,Product1,1200,Visa,Dez,Al 'Adliyah,Al Manamah,Bahrain,01/10/2009 12:50,1/15/09 4:46,26.2172222,50.5405556
1/15/09 3:43,Product1,1200,Visa,Stephanie,Rouen,Upper Normandy,France,12/26/08 9:01,1/15/09 5:39,49.4333333,1.0833333
01/05/2009 15:39,Product1,1200,Visa,Melissa ,Parkland                    ,FL,United States,12/10/2008 9:14,1/15/09 6:01,26.30972,-80.2375
01/10/2009 5:21,Product1,1200,Amex,CLARE,San Francisco               ,CA,United States,01/10/2009 0:07,1/15/09 6:25,37.775,-122.41833
1/15/09 4:12,Product1,1200,Mastercard,catherine,Keller                      ,VA,United States,1/15/09 4:02,1/15/09 6:59,37.61917,-75.76417
01/12/2009 11:48,Product1,1200,Visa,Veronique ,Tsawwassen,British Columbia,Canada,7/24/08 15:48,1/15/09 8:56,49.0166667,-123.0833333
01/06/2009 10:48,Product1,1200,Mastercard,Bruce and Camille,Clinton                     ,NJ,United States,8/21/07 21:19,1/15/09 9:32,40.63667,-74.91028
1/14/09 9:10,Product1,1200,Mastercard,Ellen,Owensboro                   ,KY,United States,1/14/09 8:25,1/15/09 9:40,37.77417,-87.11333
1/14/09 22:44,Product1,1200,Visa,Amy,Lakewood Village            ,TX,United States,1/14/09 22:21,1/15/09 9:50,33.1425,-96.96917
01/06/2009 7:23,Product1,1200,Visa,Anna,Okotoks,Alberta,Canada,7/21/08 12:03,1/15/09 10:00,50.7166667,-113.9666667
01/01/2009 5:04,Product1,1200,Mastercard,Regina,Glimmen,Groningen,Netherlands,12/16/02 4:09,1/15/09 10:50,53.1333333,6.6333333
1/15/09 11:56,Product1,1200,Visa,Heidi,Calgary,Alberta,Canada,1/14/09 9:16,1/15/09 11:39,51.0833333,-114.0833333
1/15/09 11:58,Product1,1200,Visa,Jessica,Kanata,Ontario,Canada,1/14/09 5:59,1/15/09 11:49,45.3333333,-75.9
01/12/2009 9:43,Product1,1200,Diners,Petra,Bergen,Nordrhein-Westfalen,Germany,01/07/2009 8:39,1/15/09 12:14,51.7166667,6.5
1/15/09 12:33,Product1,1200,Visa,Brian,College Park                ,MD,United States,1/15/09 12:19,1/15/09 13:28,38.98056,-76.93722
1/14/09 11:35,Product1,1200,Visa,Kenny,Kailua Kona                 ,HI,United States,1/13/09 17:42,1/15/09 15:31,19.7349,-155.9003
1/14/09 15:40,Product1,1200,Amex,ayse,Redondo Beach               ,CA,United States,1/13/09 19:37,1/15/09 15:45,33.84917,-118.3875
01/03/2009 11:08,Product1,1200,Amex,Maria and Timothy,Fountain Hls                ,AZ,United States,06/05/2006 22:42,1/15/09 16:37,33.61167,-111.71667
01/12/2009 1:37,Product1,1200,Visa,IMAN,Brisbane,Queensland,Australia,01/12/2009 1:26,1/15/09 17:54,-27.5,153.0166667
1/16/09 7:21,Product1,2100,Mastercard,Gerald,Mahopac                     ,NY,United States,11/03/2008 14:28,1/16/09 6:08,41.37222,-73.73389
1/15/09 12:54,Product1,1200,Mastercard,Annelies,Ile-Perrot,Quebec,Canada,1/15/09 12:22,1/16/09 7:53,45.4,-73.9333333
01/07/2009 7:19,Product1,1200,Amex,Jocelyn,Bruxelles,Brussels (Bruxelles),Belgium,6/30/08 9:33,1/16/09 8:54,50.8333333,4.3333333
01/03/2009 9:56,Product1,1200,Visa,Kara,Chicago                     ,IL,United States,12/31/08 16:26,1/16/09 13:43,41.85,-87.65
1/16/09 17:41,Product1,1200,Visa,Orsi,Rayford                     ,TX,United States,1/16/09 17:01,1/16/09 17:56,30.07972,-95.41694
01/05/2009 5:33,Product1,1200,Visa,Ben,Escondido                   ,CA,United States,01/05/2009 3:19,1/17/09 0:35,33.11917,-117.08556
01/02/2009 0:50,Product1,1200,Visa,Sam,Tesvikiye,Istanbul,Turkey,01/02/2009 0:10,1/17/09 1:57,40.6166667,29.0666667
1/13/09 1:51,Product1,1200,Visa,Filip and Teresa,Centurion,Gauteng,South Africa,01/12/2009 1:40,1/17/09 2:23,-25.8744444,28.1705556
1/15/09 10:24,Product1,1200,Visa,Grace ,York,England,United Kingdom,1/13/09 12:30,1/17/09 4:42,53.9666667,-1.0833333
01/11/2009 8:59,Product1,1200,Visa,Chelsey ,Ashburn                     ,VA,United States,11/09/2008 5:53,1/17/09 8:54,39.04361,-77.48778
1/15/09 15:56,Product1,1200,Amex,Charis,Los Angeles                 ,CA,United States,11/11/2005 11:49,1/17/09 10:54,34.05222,-118.24278
01/01/2009 12:19,Product1,1200,Visa,Marlene,Edgewood                    ,WA,United States,1/16/06 14:45,1/17/09 11:38,47.25028,-122.2925
01/06/2009 14:03,Product1,1200,Visa,Fie,New York                    ,NY,United States,05/01/2008 8:26,1/17/09 11:44,40.71417,-74.00639
01/09/2009 15:32,Product1,1200,Diners,Nicole ,Basingstoke,England,United Kingdom,01/07/2009 12:31,1/17/09 12:03,51.2666667,-1.0833333
1/17/09 12:59,Product1,1200,Diners,Linda,Den Haag,Zuid-Holland,Netherlands,10/29/08 13:09,1/17/09 13:07,52.0833333,4.3
01/12/2009 12:37,Product1,1200,Visa,Janet,Marietta                    ,GA,United States,9/13/07 14:20,1/17/09 16:17,33.9525,-84.55
01/04/2009 7:43,Product1,1200,Mastercard,Jamie,Houston                     ,TX,United States,01/04/2009 6:51,1/17/09 17:31,29.76306,-95.36306
1/17/09 16:22,Product1,1200,Visa,Chad,West Orange                 ,NJ,United States,1/17/09 15:22,1/17/09 18:42,40.79861,-74.23944
01/01/2009 3:51,Product1,1200,Mastercard,sunny,Amsterdam,Noord-Holland,Netherlands,9/14/05 22:53,1/17/09 22:34,52.35,4.9166667
1/18/09 5:27,Product1,1200,Visa,Anna,Downey                      ,CA,United States,1/18/09 4:28,1/18/09 4:42,33.94,-118.13167
1/18/09 5:15,Product1,1200,Diners,Roger,Urlingford,Kilkenny,Ireland,1/18/09 4:44,1/18/09 4:44,52.7205556,-7.5825
01/01/2009 1:51,Product1,1200,Mastercard,Si,Holte,Kobenhavn,Denmark,12/14/05 15:46,1/18/09 4:44,55.8166667,12.4666667
1/18/09 6:30,Product1,1200,Visa,Sherri,Freienbach,Schwyz,Switzerland,6/22/08 14:10,1/18/09 6:21,47.2,8.75
01/11/2009 10:51,Product1,1200,Mastercard,Katherine,Hofheim am Taunus,Hessen,Germany,12/06/2008 1:34,1/18/09 7:17,50.0833333,8.45
01/04/2009 17:02,Product1,1200,Mastercard,Clare,Lafayette                   ,CA,United States,12/31/05 0:55,1/18/09 8:43,37.88583,-122.11694
1/17/09 1:23,Product1,1200,Amex,Campbell,Mushrif,,Kuwait,1/16/09 14:26,1/18/09 9:08,29.2891667,48.05
1/18/09 2:16,Product1,1200,Visa,Ruth,Nashville                   ,AR,United States,1/16/09 19:32,1/18/09 9:13,33.94556,-93.84694
1/18/09 11:34,Product2,3600,Visa,Cheryl,New Malden,England,United Kingdom,10/28/05 14:57,1/18/09 10:27,51.4166667,-0.25
1/18/09 4:38,Product1,1200,Visa,Doug,Bishop Auckland,England,United Kingdom,12/28/07 13:39,1/18/09 11:58,54.65,-1.6666667
1/18/09 13:26,Product3,7500,Mastercard,Julianne,Navan,Meath,Ireland,1/18/09 12:20,1/18/09 12:20,53.6527778,-6.6813889
1/18/09 11:53,Product1,1200,Visa,Shailesh,Joppa,MD,United States,1/18/09 0:00,1/18/09 12:23,39.43361,-76.35806
1/18/09 12:04,Product1,1200,Visa,Conrad,Joppa,MD,United States,1/18/09 0:00,1/18/09 12:23,39.43361,-76.35806
1/13/09 19:54,Product1,1200,Diners,Alison,Hampton                     ,NJ,United States,01/03/2006 6:09,1/18/09 12:51,40.70694,-74.95639
01/05/2009 21:06,Product1,1200,Mastercard,Tracy,Louisville                  ,KY,United States,01/05/2009 16:27,1/18/09 13:58,38.25417,-85.75944
1/14/09 6:32,Product1,1200,Visa,Kate,Broadlands                  ,VA,United States,04/12/2006 6:14,1/18/09 14:04,39.04361,-77.48778
01/04/2009 23:48,Product1,1200,Diners,Sarka,Yellowknife,Northwest Territories,Canada,01/04/2009 22:41,1/18/09 16:17,62.45,-114.35
1/18/09 16:32,Product2,3600,Visa,Therese,Los Angeles                 ,CA,United States,1/18/09 16:23,1/18/09 16:54,34.05222,-118.24278
1/18/09 17:04,Product2,3600,Visa,Abdul-L,New York                    ,NY,United States,1/18/09 16:58,1/18/09 16:58,40.71417,-74.00639
1/18/09 17:20,Product2,3600,Visa,heidi,Saint Paul                  ,MN,United States,1/18/09 17:16,1/18/09 17:16,44.94444,-93.09306
1/18/09 17:39,Product2,3600,Visa,jiyoung,New York                    ,NY,United States,1/18/09 17:34,1/18/09 17:34,40.71417,-74.00639
01/11/2009 11:20,Product1,1200,Visa,Klara,Spring Lake Park            ,MN,United States,12/31/08 19:48,1/18/09 17:43,45.10778,-93.23778
1/13/09 20:59,Product1,1200,Mastercard,Andrew,Winnipeg,Manitoba,Canada,1/13/09 16:44,1/18/09 19:17,49.8833333,-97.1666667
01/12/2009 16:50,Product1,1200,Visa,Vicki and Bill,Seattle                     ,WA,United States,01/04/2009 21:33,1/19/09 1:22,47.60639,-122.33083
01/12/2009 15:12,Product1,1200,Mastercard,David,Deptford                    ,NJ,United States,01/12/2009 14:07,1/19/09 3:47,39.83806,-75.15306
01/06/2009 12:27,Product1,1200,Mastercard,Antonella,Amsterdam,Noord-Holland,Netherlands,01/06/2009 12:04,1/19/09 4:59,52.35,4.9166667
01/09/2009 18:52,Product1,1200,Visa,David,Alpharetta                  ,GA,United States,11/25/08 7:56,1/19/09 6:12,34.07528,-84.29417
1/18/09 23:17,Product1,1200,Visa,Greg,Washington                  ,DC,United States,1/18/09 15:18,1/19/09 6:13,38.895,-77.03667
01/07/2009 8:21,Product1,1200,Visa,Jannik ,Holmenkollen,Oslo,Norway,01/03/2009 11:06,1/19/09 6:54,59.9666667,10.6666667
01/03/2009 9:54,Product1,1200,Visa,Sylvia,Zekeriyakoy,Istanbul,Turkey,12/29/08 10:38,1/19/09 7:37,41.1980556,29.0302778
01/05/2009 19:37,Product1,1200,Amex,Bernadette,Washington                  ,DC,United States,11/07/2007 9:49,1/19/09 7:42,38.895,-77.03667
01/04/2009 12:49,Product1,1200,Diners,Denise,Montreal,Quebec,Canada,5/25/07 10:58,1/19/09 7:58,45.5,-73.5833333
01/08/2009 11:55,Product2,3600,Visa,Caren,Braunschweig,Lower Saxony,Germany,01/03/2009 12:39,1/19/09 8:31,52.2666667,10.5333333
1/14/09 18:21,Product1,1200,Visa,luciana,Athens                      ,GA,United States,9/25/05 6:25,1/19/09 11:21,33.96083,-83.37806
01/11/2009 19:01,Product1,1200,Diners,Maja,Hoschton                    ,GA,United States,01/11/2009 18:17,1/19/09 12:47,34.09639,-83.76139
1/14/09 5:20,Product2,3600,Visa,Kristen,Binningen,Basel-Country,Switzerland,01/12/2009 13:31,1/19/09 13:07,47.5333333,7.5666667
1/15/09 8:07,Product1,1200,Visa,Kirstie,Royal Oak                   ,MI,United States,12/13/08 19:35,1/19/09 14:59,42.48944,-83.14472
1/15/09 8:10,Product1,1200,Visa,Scott ,Royal Oak                   ,MI,United States,12/13/08 19:35,1/19/09 14:59,42.48944,-83.14472
01/02/2009 17:45,Product1,1200,Mastercard,Jammie,Belmont                     ,MA,United States,12/09/2005 17:19,1/19/09 15:36,42.39583,-71.17917
1/19/09 16:10,Product1,1200,Mastercard,Frank,Old Greenwich               ,CT,United States,1/19/09 15:31,1/19/09 16:00,41.02278,-73.56528
1/19/09 16:55,Product1,1200,Mastercard,scott,Coconut Grove               ,FL,United States,1/19/09 16:18,1/19/09 16:18,25.71222,-80.25722
01/10/2009 17:41,Product1,1200,Visa,Jiri,Vienna                      ,VA,United States,01/10/2009 16:32,1/19/09 17:52,38.90111,-77.26556
1/18/09 13:49,Product2,3600,Visa,Bev,San Ramon                   ,CA,United States,01/11/2009 12:00,1/19/09 18:07,37.78,-121.97694
1/15/09 5:47,Product1,1200,Visa,Dave and Amy,Norfolk                     ,VA,United States,1/15/09 0:21,1/19/09 22:48,36.84667,-76.28556
1/19/09 23:06,Product1,1200,Mastercard,Rebecca,Norfolk                     ,VA,United States,1/19/09 22:53,1/19/09 22:53,36.84667,-76.28556
1/19/09 11:12,Product1,1200,Visa,Melissa,Aberdeen,Scotland,United Kingdom,8/27/08 8:22,1/20/09 0:35,57.1333333,-2.1
01/04/2009 1:38,Product1,1200,Amex,jeremy,Charlestown,New South Wales,Australia,7/15/08 21:04,1/20/09 1:08,-32.95,151.6666667
1/20/09 3:11,Product1,1200,Visa,Randy,Wigan,England,United Kingdom,1/20/09 3:02,1/20/09 3:06,53.5333333,-2.6166667
01/03/2009 10:52,Product1,1200,Visa,Djeiny,Rockville                   ,MD,United States,4/18/05 9:27,1/20/09 6:47,39.01806,-77.20889
1/20/09 5:24,Product3 ,7500,Mastercard,Amanda,Shreveport                  ,LA,United States,1/20/09 5:13,1/20/09 7:15,32.525,-93.75
1/20/09 6:03,Product1,1200,Mastercard,Andrea ,Shreveport                  ,LA,United States,1/20/09 5:13,1/20/09 7:15,32.525,-93.75
01/10/2009 11:37,Product1,1200,Amex,Joanna,Little Silver               ,NJ,United States,12/28/08 20:10,1/20/09 7:42,40.33667,-74.0475
1/20/09 5:50,Product1,1200,Visa,Jessica,Abbey Town,England,United Kingdom,1/20/09 4:23,1/20/09 7:46,54.8333333,-3.2833333
1/19/09 16:32,Product1,1200,Amex,alison,Mid City West               ,PA,United States,1/19/09 10:24,1/20/09 10:09,39.95222,-75.16417
1/18/09 10:42,Product1,1200,Visa,malin,Atlanta,Georgia,United States,1/18/09 0:00,1/20/09 11:09,33.74889,-84.38806
01/07/2009 6:11,Product2,3600,Visa,Tiffany ,Paris,Ile-de-France,France,01/07/2009 5:30,1/20/09 11:22,48.8666667,2.3333333
01/03/2009 8:29,Product1,1200,Visa,Genevieve,Milton Keynes,England,United Kingdom,10/10/2008 1:26,1/20/09 11:31,52.0333333,-0.7
01/01/2009 2:09,Product1,1200,Mastercard,Saraya,Dresden,Saxony,Germany,03/12/2006 11:31,1/20/09 11:56,51.05,13.75
1/20/09 12:34,Product1,1200,Mastercard,Anastasia,NYC                         ,NY,United States,1/20/09 12:17,1/20/09 12:55,40.71417,-74.00639
1/20/09 3:51,Product1,1200,Visa,Elizabeth,The Grange,Queensland,Australia,11/12/2008 3:34,1/20/09 13:11,-24.8166667,152.4166667
1/15/09 11:26,Product1,1200,Visa,Nicole,Brookline                   ,MA,United States,07/11/2007 11:18,1/20/09 14:01,42.33167,-71.12167
01/05/2009 16:55,Product1,1200,Visa,Jeffrey,Montreal-Nord,Quebec,Canada,9/29/03 17:08,1/20/09 14:38,45.6,-73.6166667
01/12/2009 19:47,Product1,1200,Mastercard,Blanca Gabriela ,Irving                      ,TX,United States,12/10/2008 21:49,1/20/09 18:02,32.81389,-96.94861
01/04/2009 19:20,Product1,1200,Amex,Elisa,Ottawa Hills                ,OH,United States,01/04/2009 18:38,1/20/09 18:03,41.66417,-83.64333
01/10/2009 8:33,Product2,3600,Mastercard,Patricia ,Portola Valley              ,CA,United States,02/04/2007 10:09,1/20/09 22:06,37.38417,-122.23417
01/09/2009 14:51,Product1,1200,Visa,Bob,Sydney,New South Wales,Australia,01/07/2009 18:15,1/21/09 0:29,-33.8833333,151.2166667
1/16/09 2:41,Product3,7500,Visa,Kristyn,Kearns                      ,UT,United States,1/15/09 18:01,1/21/09 1:02,40.66,-111.99556
1/16/09 18:36,Product1,1200,Visa,Elizabeth,Wollongong,New South Wales,Australia,11/01/2008 16:32,1/21/09 1:49,-34.4333333,150.8833333
1/20/09 8:10,Product1,1200,Amex,Cathy,Brooklyn                    ,NY,United States,08/05/2007 18:52,1/21/09 5:16,40.65,-73.95
01/06/2009 12:45,Product2,3600,Amex,Kaylee,Penngrove                   ,CA,United States,01/05/2009 14:06,1/21/09 11:18,38.29972,-122.66556
01/10/2009 8:13,Product1,1200,Visa,suzanne,Lemont                      ,IL,United States,01/09/2009 19:15,1/21/09 11:35,41.67361,-88.00167
01/07/2009 14:15,Product1,1200,Mastercard,Cassandra,San Carlos                  ,CA,United States,01/05/2009 15:42,1/21/09 12:00,37.50722,-122.25944
01/08/2009 15:27,Product1,1200,Mastercard,Jennifer,Chicago                     ,IL,United States,01/04/2009 22:22,1/21/09 13:28,41.85,-87.65
1/21/09 11:36,Product1,1200,Visa,nicole,Oslo,Oslo,Norway,12/23/08 12:02,1/21/09 13:47,59.9166667,10.75
1/21/09 14:06,Product1,1200,Visa,Sean,Wantagh,NY,United States,1/21/09 12:00,1/21/09 14:06,40.68361,-73.51056
01/02/2009 2:28,Product1,1200,Mastercard,Morgan,Coomera,Queensland,Australia,05/03/2008 4:14,1/21/09 16:37,-27.8833333,153.3
1/19/09 19:07,Product1,1200,Diners,Harriet,Fort Oglethorpe             ,GA,United States,1/19/09 16:52,1/21/09 17:02,34.94889,-85.25694
1/18/09 6:27,Product1,1200,Mastercard,Janine,Corbin City                 ,NJ,United States,10/27/05 19:22,1/21/09 17:10,39.24167,-74.81556
1/20/09 11:58,Product1,1200,Mastercard,Debora,Lakeside                    ,CA,United States,11/01/2008 23:14,1/21/09 17:25,32.85722,-116.92139
1/20/09 16:32,Product1,1200,Visa,Vishpala,Margate                     ,FL,United States,01/02/2008 9:52,1/21/09 19:05,26.30972,-80.2375
01/01/2009 7:09,Product1,1200,Amex,Emer,South Palm Beach            ,FL,United States,2/28/05 5:40,1/21/09 19:14,26.70528,-80.03667
1/21/09 14:55,Product1,1200,Diners,john,New York                    ,NY,United States,1/21/09 10:23,1/21/09 20:34,40.71417,-74.00639
01/07/2009 22:29,Product1,1200,Mastercard,lailani,Anchorage                   ,AK,United States,01/07/2009 13:23,1/21/09 22:30,61.21806,-149.90028
01/11/2009 22:22,Product2,3600,Visa,STEPHANIE,Mona Vale,New South Wales,Australia,12/30/08 17:48,1/21/09 22:33,-33.6666667,151.3
1/21/09 14:25,Product1,1200,Visa,Tricia,Castricum,Noord-Holland,Netherlands,12/28/07 15:28,1/22/09 0:38,52.55,4.6666667
1/18/09 16:50,Product1,1200,Visa,Celina,North Brunswick             ,NJ,United States,1/18/09 16:25,1/22/09 1:17,40.4497,-74.482
1/21/09 12:08,Product2,3600,Visa,Rosemary,Jacksonville                ,FL,United States,1/21/09 11:39,1/22/09 6:13,30.33194,-81.65583
1/22/09 6:41,Product1,1200,Visa,Patrick,Baytown                     ,TX,United States,1/22/09 4:32,1/22/09 6:54,29.73528,-94.97722
01/12/2009 9:23,Product1,1200,Mastercard,Jacob,Winter Haven                ,FL,United States,01/10/2009 14:55,1/22/09 7:59,28.02194,-81.73306
1/22/09 8:23,Product1,1200,Visa,elisabeth,Gonzaga Univ                ,WA,United States,1/22/09 7:55,1/22/09 8:14,47.65889,-117.425
01/03/2009 6:41,Product2,3600,Visa,ayelet,Malmo,Skane,Sweden,08/07/2008 9:24,1/22/09 11:24,55.6,13
01/01/2009 12:20,Product2,3600,Visa,seemab,San Pawl tat-Targa, ,Malta,9/17/05 3:32,1/22/09 12:00,35.9202778,14.4425
01/04/2009 22:00,Product2,3600,Amex,Lucien,Wiesbaden,Hessen,Germany,01/04/2009 11:32,1/22/09 12:21,50.0833333,8.25
1/21/09 2:15,Product1,1200,Visa,Kevin ,London,England,United Kingdom,01/08/2009 2:50,1/22/09 13:46,51.52721,0.14559
01/01/2009 14:22,Product1,1200,Mastercard,Liban,Stavanger,Rogaland,Norway,6/19/08 10:48,1/22/09 14:38,58.9666667,5.75
1/16/09 1:07,Product2,3600,Diners,Lesley,Cork,Cork,Ireland,1/14/09 4:10,1/22/09 15:06,51.8986111,-8.4958333
1/20/09 8:51,Product1,1200,Visa,Marie,Winchester                  ,MA,United States,7/23/08 14:59,1/22/09 18:08,42.45222,-71.1375
01/04/2009 9:02,Product1,1200,Visa,Charlene,Calgary,Alberta,Canada,12/13/08 19:20,1/22/09 19:27,51.0833333,-114.0833333
01/06/2009 8:34,Product1,1200,Visa,Orit,Dallas                      ,TX,United States,01/05/2009 15:00,1/22/09 21:41,32.78333,-96.8
01/08/2009 4:16,Product1,1200,Visa,Alan,Malahide,Dublin,Ireland,4/18/06 13:26,1/23/09 2:21,53.4508333,-6.1544444
1/23/09 3:33,Product2,3600,Mastercard,Anja Langer,Saint Paul                  ,MN,United States,1/23/09 3:00,1/23/09 3:00,44.94444,-93.09306
01/06/2009 4:18,Product1,1200,Visa,Lina,Edinburgh,Scotland,United Kingdom,01/06/2009 3:38,1/23/09 3:22,55.95,-3.2
1/23/09 3:30,Product1,1200,Amex,Larry,Naarden,Noord-Holland,Netherlands,1/23/09 3:27,1/23/09 3:40,52.3,5.15
01/10/2009 4:04,Product1,1200,Visa,Jessica,Oldenburg,Lower Saxony,Germany,12/20/08 8:41,1/23/09 5:28,53.1666667,8.2
01/05/2009 2:57,Product3,7500,Visa,Marion,Rennes,Brittany,France,12/29/08 3:16,1/23/09 7:29,48.0833333,-1.6833333
1/21/09 14:15,Product1,1200,Amex,Eric,Ely                         ,NV,United States,1/21/09 13:56,1/23/09 10:35,39.2475,-114.88778
1/21/09 6:39,Product1,1200,Amex,Miriane,Norfolk                     ,VA,United States,7/30/07 21:10,1/23/09 12:48,36.84667,-76.28556
1/19/09 8:14,Product1,1200,Visa,Jeff,Houston                     ,TX,United States,01/04/2009 12:39,1/23/09 12:52,29.76306,-95.36306
1/23/09 8:00,Product1,1200,Diners,christina,Chepel,Budapest,Hungary,1/22/09 9:55,1/23/09 12:59,47.4166667,19.0833333
1/22/09 23:35,Product1,1200,Mastercard,Shannon,Buffalo Grove               ,IL,United States,1/22/09 23:23,1/23/09 22:05,41.98111,-89.595
1/14/09 3:09,Product1,1200,Mastercard,Angela,Newburgh,Scotland,United Kingdom,4/25/07 5:08,1/24/09 2:12,56.3333333,-3.25
1/16/09 1:51,Product1,1200,Visa,Angela,Vienna,Vienna,Austria,1/16/09 1:38,1/24/09 5:39,48.2,16.3666667
01/01/2009 6:29,Product1,1200,Mastercard,Elaine,Vicenza,Veneto,Italy,08/03/2007 2:48,1/24/09 5:51,45.55,11.55
1/21/09 7:59,Product1,1200,Visa,Helen,Mechanics Grove             ,PA,United States,04/07/2008 17:15,1/24/09 6:01,39.89694,-76.16389
1/23/09 7:37,Product2,3600,Amex,Fatisha,Miami                       ,FL,United States,1/23/09 6:32,1/24/09 6:54,25.77389,-80.19389
1/18/09 14:39,Product1,1200,Visa,Nina,Silver Spring               ,MD,United States,01/05/2009 15:43,1/24/09 7:31,38.99056,-77.02639
1/24/09 9:01,Product2,3600,Visa,Barbara,Kirriemuir,Scotland,United Kingdom,1/24/09 8:02,1/24/09 8:02,56.6666667,-3
1/15/09 1:41,Product1,1200,Diners,Karen,Roquefort,Provence-Alpes-Cote d'Azur,France,1/14/09 4:13,1/24/09 8:36,43.25,5.6166667
1/17/09 7:23,Product1,1200,Visa,Georgina,Portland                    ,OR,United States,11/28/07 10:05,1/24/09 8:54,45.52361,-122.675
1/23/09 11:37,Product1,1200,Diners,Kellie,Staten Island               ,NY,United States,1/23/09 10:42,1/24/09 8:59,40.56472,-74.1275
1/19/09 15:02,Product1,1200,Mastercard,Terry,San Antonio                 ,TX,United States,1/19/09 14:43,1/24/09 10:26,29.42389,-98.49333
01/11/2009 7:10,Product2,3600,Visa,LAURIE,Guildford,England,United Kingdom,03/07/2006 5:47,1/24/09 14:54,51.2166667,-0.5666667
01/10/2009 3:28,Product1,1200,Visa,frauke,Horten,Vestfold,Norway,11/24/08 15:50,1/24/09 15:10,59.4136111,10.4669444
01/07/2009 19:03,Product2,3600,Mastercard,Cindy,Englewood                   ,CO,United States,12/17/07 19:55,1/24/09 19:19,39.64778,-104.98722
1/17/09 14:02,Product1,1200,Visa,Simone,San Antonio                 ,TX,United States,12/07/2005 19:48,1/24/09 21:29,29.42389,-98.49333
1/25/09 0:09,Product1,1200,Visa,Hilde ,Princeville                 ,HI,United States,6/20/08 22:08,1/25/09 0:12,22.22361,-159.48528
01/09/2009 14:27,Product1,1200,Visa,Leah,Castleknock,Dublin,Ireland,6/14/07 13:14,1/25/09 0:57,53.3786111,-6.3922222
01/09/2009 14:32,Product1,1200,Visa,Laine,Castleknock,Dublin,Ireland,6/14/07 13:14,1/25/09 0:57,53.3786111,-6.3922222
01/11/2009 15:59,Product1,1200,Visa,kirsten,Bishops Stortford,England,United Kingdom,1/17/06 8:51,1/25/09 3:03,51.8666667,0.1666667
01/06/2009 14:38,Product2,3600,Mastercard,Elizabeth,Den Haag,Zuid-Holland,Netherlands,5/14/07 12:48,1/25/09 3:13,52.0833333,4.3
01/06/2009 9:52,Product1,1200,Mastercard,Anna,Lafayette                   ,CA,United States,01/03/2009 15:01,1/25/09 10:19,37.88583,-122.11694
01/01/2009 9:21,Product1,1200,Diners,Babs,Blackpool,England,United Kingdom,01/01/2009 8:05,1/25/09 10:52,53.8166667,-3.05
01/03/2009 7:58,Product1,1200,Mastercard,Gerlinde,Hellerup,Kobenhavn,Denmark,01/02/2009 12:27,1/25/09 11:13,55.7333333,12.5833333
01/11/2009 11:36,Product1,1200,Mastercard,Hollyn,London,England,United Kingdom,10/14/08 14:23,1/25/09 11:16,51.51334,-0.08895
1/13/09 14:53,Product1,1200,Visa,leiser,N Java                      ,NY,United States,1/13/09 13:22,1/25/09 11:33,42.68361,-78.33806
01/01/2009 10:06,Product2,3600,Mastercard,Irene,Munich,Bayern,Germany,01/01/2009 9:13,1/25/09 11:37,48.15,11.5833333
1/16/09 5:07,Product1,1200,Amex,Lisa,Brulon,Pays de la Loire,France,08/06/2007 7:48,1/25/09 11:42,47.9666667,-0.2333333
01/06/2009 16:37,Product1,1200,Visa,Ann,Austin                      ,TX,United States,12/28/08 12:31,1/25/09 12:17,30.26694,-97.74278
1/18/09 17:21,Product1,1200,Mastercard,Nichol Jane,Midland Park                ,NJ,United States,01/11/2009 20:59,1/25/09 14:00,40.98917,-74.14111
1/13/09 15:18,Product1,1200,Amex,Beatriz,Centerport                  ,NY,United States,1/13/09 14:46,1/25/09 14:01,40.88528,-73.37667
1/24/09 8:21,Product1,1200,Mastercard,corina,Neustift am Walde,Vienna,Austria,7/19/05 12:42,1/25/09 14:22,48.25,16.3
1/24/09 8:25,Product1,1200,Mastercard,manon,Neustift am Walde,Vienna,Austria,7/19/05 12:42,1/25/09 14:22,48.25,16.3
1/18/09 13:06,Product1,1200,Diners,Isabelle,Shorewood                   ,MN,United States,1/18/09 8:44,1/25/09 14:49,44.90333,-93.56611
1/22/09 18:44,Product1,1200,Visa,Lynne,Southlake                   ,TX,United States,1/22/09 17:24,1/25/09 15:02,32.94111,-97.13389
01/08/2009 8:58,Product1,1200,Mastercard,Doug,Huntington                  ,NY,United States,01/08/2009 8:22,1/25/09 17:39,40.86806,-73.42611
01/04/2009 9:54,Product1,1200,Mastercard,AMY,The Woodlands               ,TX,United States,12/30/08 20:41,1/25/09 18:23,30.15778,-95.48917
1/13/09 20:22,Product1,1200,Visa,Kim,Kelowna,British Columbia,Canada,08/02/2008 14:28,1/25/09 19:25,49.9,-119.4833333
01/09/2009 10:22,Product1,1200,Mastercard,HELIDA,White House                 ,TN,United States,01/05/2009 14:49,1/25/09 19:35,36.47028,-86.65139
01/05/2009 12:28,Product1,1200,Visa,Cameron,Rungsted,Frederiksborg,Denmark,01/05/2009 12:02,1/25/09 23:22,55.8841667,12.5419444
1/26/09 3:43,Product1,1200,Mastercard,Wendy,Lake Mahopac                ,NY,United States,1/26/09 3:10,1/26/09 3:10,41.37222,-73.73389
1/26/09 3:49,Product2,3600,Mastercard,Jane,Biot,Provence-Alpes-Cote d'Azur,France,03/01/2008 0:00,1/26/09 3:18,43.6333333,7.1
01/11/2009 13:16,Product2,3600,Visa,shelby,Plantation                  ,FL,United States,01/11/2009 12:20,1/26/09 3:42,26.12194,-80.14361
1/22/09 15:32,Product1,1200,Mastercard,Tara,Killiney,Dublin,Ireland,2/27/07 11:35,1/26/09 4:32,53.2522222,-6.1125
01/09/2009 14:25,Product1,1200,Amex,James,Guer,Brittany,France,04/07/2008 0:00,1/26/09 5:32,47.9,-2.1166667
1/21/09 11:28,Product1,800,Amex,Heloise ,Arlington                   ,VA,United States,9/25/05 20:26,1/26/09 6:23,38.89028,-77.08444
01/01/2009 14:19,Product1,1200,Mastercard,Gabriel,Three Hills,Alberta,Canada,5/21/08 11:39,1/26/09 7:17,51.7,-113.2666667
1/26/09 4:30,Product1,1200,Visa,Jodie ,Great Falls,Virginia,United States,1/26/09 0:00,1/26/09 7:48,38.99806,-77.28861
01/07/2009 4:45,Product1,1200,Amex,Jeremy,London,England,United Kingdom,01/07/2009 4:30,1/26/09 8:01,51.52721,0.14559
01/11/2009 12:12,Product1,1200,Visa,Helga,Clontarf,Dublin,Ireland,11/30/05 12:50,1/26/09 10:00,53.3591667,-6.2161111
1/26/09 10:24,Product1,1200,Visa,Eleanor,Vancouver,British Columbia,Canada,12/01/2008 18:30,1/26/09 10:12,49.25,-123.1333333
1/26/09 8:58,Product1,1200,Diners,Miss,London,England,United Kingdom,1/26/09 8:46,1/26/09 11:14,51.52721,0.14559
01/07/2009 17:51,Product1,1200,Visa,Marie,Dickerson                   ,MD,United States,1/13/06 9:38,1/26/09 11:35,39.22,-77.42444
1/18/09 20:16,Product1,1200,Mastercard,Lisa,Princeton                   ,NJ,United States,1/18/09 19:47,1/26/09 13:07,40.34861,-74.65944
1/13/09 9:51,Product1,1200,Mastercard,Priska,Calgary,Alberta,Canada,01/04/2009 23:43,1/26/09 17:24,51.0833333,-114.0833333
1/24/09 18:43,Product1,1200,Visa,Katrine,North Tustin                ,CA,United States,01/11/2009 13:33,1/26/09 21:29,33.76444,-117.79306
01/05/2009 0:46,Product1,1200,Amex,Lisa,Gurgaon,Haryana,India,01/02/2009 3:03,1/27/09 0:17,28.4666667,77.0333333
01/09/2009 1:12,Product1,1200,Visa,Sabrina,Rambouillet,Ile-de-France,France,6/18/08 6:35,1/27/09 2:56,48.65,1.8333333
1/26/09 6:25,Product1,1200,Visa,prof,Gladwyne                    ,PA,United States,1/19/09 6:38,1/27/09 3:58,40.04056,-75.27944
1/21/09 16:57,Product1,1200,Mastercard,KeithMichelle,Houston                     ,TX,United States,1/21/09 16:37,1/27/09 4:43,29.76306,-95.36306
01/05/2009 5:33,Product1,1200,Mastercard,Kim,London,England,United Kingdom,12/08/2005 13:22,1/27/09 4:49,51.52721,0.14559
1/27/09 5:10,Product1,1200,Visa,anissa,Slough,England,United Kingdom,1/15/09 10:07,1/27/09 4:51,51.5,-0.5833333
01/07/2009 8:00,Product1,1200,Mastercard,john,Glan-Munchweiler,Rhineland-Palatinate,Germany,5/26/05 7:00,1/27/09 6:30,49.4666667,7.4333333
1/20/09 7:08,Product2,3600,Visa,Miye,Downingtown                 ,PA,United States,1/19/09 8:06,1/27/09 6:38,40.00639,-75.70361
1/27/09 2:26,Product1,1200,Diners,Heidi,MT Pleasant                 ,TX,United States,1/27/09 2:16,1/27/09 6:41,33.15667,-94.96806
01/05/2009 6:14,Product1,1200,Mastercard,T,Veigy-Foncenex,Rhone-Alpes,France,01/05/2009 4:52,1/27/09 7:01,46.2666667,6.25
1/13/09 8:11,Product2,3600,Visa,Daniele,Katy                        ,TX,United States,5/27/08 11:01,1/27/09 7:49,29.78556,-95.82417
01/10/2009 9:18,Product1,1200,Diners,luisa,Gorey, ,Jersey,05/09/2006 10:43,1/27/09 7:51,49.2,-2.0333333
01/08/2009 18:52,Product1,1200,Visa,Nadine,Belgrade                    ,MT,United States,01/07/2009 15:30,1/27/09 9:40,45.77611,-111.17611
01/12/2009 10:06,Product1,1200,Mastercard,Tina,Calgary,Alberta,Canada,01/10/2009 14:15,1/27/09 14:26,51.0833333,-114.0833333
01/01/2009 19:25,Product1,1200,Diners,Damali,Toronto,Ontario,Canada,01/08/2008 20:41,1/27/09 14:59,43.6666667,-79.4166667
1/27/09 15:28,Product1,1200,Visa,Katherine,Corrales                    ,NM,United States,1/17/09 17:52,1/27/09 15:17,35.23778,-106.60611
01/02/2009 18:43,Product1,1200,Visa,Kathryn,Cork,Cork,Ireland,12/22/08 15:39,1/27/09 15:43,51.8986111,-8.4958333
01/08/2009 18:41,Product1,1200,Diners,Veronique,Tenafly                     ,NJ,United States,12/09/2007 17:59,1/27/09 18:12,40.92528,-73.96333
01/04/2009 18:34,Product1,1200,Visa,Erica,Leesburg                    ,VA,United States,01/04/2009 16:53,1/27/09 18:37,39.11556,-77.56389
1/25/09 8:32,Product1,1200,Visa,L,Alcona,Ontario,Canada,9/17/07 17:41,1/27/09 19:53,50.0666667,-91.75
1/23/09 22:19,Product1,1200,Mastercard,Diana,Kuala Lumpur,Kuala Lumpur,Malaysia,1/23/09 22:10,1/27/09 19:54,3.1666667,101.7
01/07/2009 10:03,Product1,1200,Mastercard,Emma,Sydney,New South Wales,Australia,12/01/2008 6:09,1/27/09 20:18,-33.8833333,151.2166667
1/18/09 3:46,Product1,1200,Visa,Marina,Nerang,Queensland,Australia,1/18/09 0:54,1/27/09 23:52,-27.9833333,153.3333333
1/28/09 0:40,Product1,1200,Mastercard,Natalie ,Bryceville                  ,FL,United States,1/27/09 22:04,1/28/09 0:01,30.38444,-81.93889
01/02/2009 15:18,Product1,1200,Diners,Brenda,Saffron Walden,England,United Kingdom,09/01/2004 2:08,1/28/09 1:26,52.0166667,0.25
1/18/09 13:59,Product1,1200,Diners,Nita,Sutton,Dublin,Ireland,12/01/2005 19:57,1/28/09 4:07,53.3905556,-6.1216667
1/16/09 9:54,Product1,1200,Mastercard,Marian,Durban,KwaZulu-Natal,South Africa,08/03/2008 18:20,1/28/09 6:26,-29.85,31.0166667
1/28/09 7:07,Product1,1200,Visa,Kevin,Berkeswell,England,United Kingdom,1/28/09 6:57,1/28/09 7:18,52.4,-1.6333333
1/28/09 7:31,Product1,1200,Visa,cari,Dryden                      ,VA,United States,1/28/09 7:22,1/28/09 7:34,36.7775,-82.94167
1/18/09 12:32,Product1,1200,Visa,Cassandra,Santry,Dublin,Ireland,12/14/08 14:26,1/28/09 7:41,53.3986111,-6.2597222
1/13/09 14:05,Product1,1200,Amex,Christof and Heidi,Barcelona,Catalonia,Spain,01/09/2009 7:54,1/28/09 7:45,41.3833333,2.1833333
1/28/09 7:49,Product1,1200,Visa,Ina,Fayetteville                ,NC,United States,1/28/09 7:45,1/28/09 7:47,35.0525,-78.87861
1/28/09 3:07,Product1,1200,Visa,Lisa,Anse Comeau,Quebec,Canada,1/26/09 11:47,1/28/09 8:08,49.2166667,-68.15
01/12/2009 15:16,Product1,1200,Visa,Camille and Carmen,Thorlakshofn, ,Iceland,01/12/2009 11:41,1/28/09 8:44,63.85,-21.3666667
01/06/2009 11:17,Product2,3600,Visa,Trina,Overland                    ,KS,United States,2/21/08 8:53,1/28/09 9:23,38.98222,-94.67056
1/23/09 9:49,Product1,1200,Visa,Ginger,King City,Ontario,Canada,1/23/09 8:18,1/28/09 9:43,43.9333333,-79.5333333
1/24/09 4:01,Product1,1200,Visa,breon,Leighton Buzzard,England,United Kingdom,01/07/2006 10:56,1/28/09 10:12,51.9166667,-0.65
1/25/09 18:21,Product1,1200,Visa,Marion,Umea,Vasterbotten,Sweden,1/25/09 16:35,1/28/09 10:19,63.8333333,20.25
1/15/09 10:51,Product1,1200,Mastercard,Pia ,Sola,Rogaland,Norway,01/11/2009 8:54,1/28/09 10:39,58.8833333,5.6
01/02/2009 5:14,Product1,1200,Visa,Dr. Donald,Stockton-on-Tees,England,United Kingdom,01/01/2005 6:03,1/28/09 11:07,54.5833333,-1.4166667
01/09/2009 10:35,Product2,3600,Visa,Jenna and Paul,Senatobia                   ,MS,United States,01/08/2009 14:02,1/28/09 11:08,34.6175,-89.96861
01/04/2009 10:16,Product1,1200,Mastercard,Rebecca,Berlin,Berlin,Germany,12/28/08 10:50,1/28/09 11:09,52.5166667,13.4
01/02/2009 12:16,Product1,1200,Mastercard,Monique,Waldorf                     ,MD,United States,12/11/2008 6:16,1/28/09 12:07,38.62444,-76.93944
1/28/09 12:31,Product1,1200,Diners,lilia ,Brooklyn                    ,NY,United States,1/28/09 12:21,1/28/09 12:30,40.65,-73.95
1/14/09 12:07,Product1,1200,Mastercard,Lainey,Lakeville                   ,MN,United States,1/13/09 22:28,1/28/09 12:37,44.64972,-93.2425
1/16/09 7:20,Product2,3600,Mastercard,Jag,Saint-Cergues,Rhone-Alpes,France,1/15/09 4:53,1/28/09 12:43,46.2333333,6.3166667
01/06/2009 9:55,Product1,1200,Mastercard,Charlene ,Vancouver,British Columbia,Canada,10/07/2008 14:55,1/28/09 13:17,49.25,-123.1333333
01/07/2009 12:55,Product1,1200,Amex,Fiona,Stamford                    ,CT,United States,01/05/2009 6:26,1/28/09 13:24,41.05333,-73.53917
1/19/09 12:14,Product1,1200,Mastercard,burt,Rathfarnham,Dublin,Ireland,05/10/2008 7:07,1/28/09 13:28,53.3005556,-6.2827778
1/13/09 15:19,Product2,3600,Visa,Maggie,Paris,Ile-de-France,France,6/27/07 4:41,1/28/09 14:11,48.8666667,2.3333333
1/18/09 8:56,Product1,1200,Mastercard,Stanford,Howell                      ,MI,United States,1/30/08 13:16,1/28/09 14:37,42.60722,-83.92944
01/04/2009 17:54,Product1,1200,Amex,ruth,Encinitas                   ,CA,United States,01/01/2009 10:12,1/28/09 15:13,33.03694,-117.29111
01/05/2009 13:46,Product1,1200,Visa,Courtney,Atchison                    ,KS,United States,11/11/2008 14:19,1/28/09 17:10,39.56306,-95.12139
01/05/2009 10:49,Product2,3600,Amex,Courtney,Mililani                    ,HI,United States,8/23/07 0:00,1/28/09 18:13,21.42556,-157.96083
01/12/2009 18:24,Product1,1200,Diners,Anthony,Victor                      ,NY,United States,12/18/08 7:14,1/28/09 18:19,42.9825,-77.40917
1/18/09 4:01,Product1,1200,Visa,Eleanor,Fairbanks                   ,AK,United States,01/06/2009 0:18,1/28/09 23:56,64.83778,-147.71639
1/16/09 10:58,Product1,1200,Visa,GAIA,Soro,Vestsjalland,Denmark,7/27/07 7:22,1/29/09 3:16,55.4333333,11.5666667
1/13/09 8:20,Product1,1200,Mastercard,Zane,Warlingham,England,United Kingdom,03/04/2005 5:51,1/29/09 3:25,51.3,-0.05
01/12/2009 1:42,Product1,1200,Mastercard,Beate,Hamburg,Hamburg,Germany,01/07/2009 7:56,1/29/09 4:33,53.55,10
1/28/09 13:07,Product1,1200,Amex,BALA,Accokeek                    ,MD,United States,11/29/07 5:56,1/29/09 4:40,38.6675,-77.02861
1/29/09 5:43,Product1,1200,Visa,Mrs,Sunnyvale                   ,CA,United States,1/29/09 5:18,1/29/09 5:18,37.36889,-122.03528
1/29/09 5:30,Product1,1200,Diners,Vanessa,Ithaca                      ,NY,United States,1/29/09 4:49,1/29/09 6:56,42.44056,-76.49694
1/13/09 18:08,Product1,1200,Amex,Amanda,Houston                     ,TX,United States,1/13/09 17:02,1/29/09 7:34,29.76306,-95.36306
01/09/2009 15:24,Product1,1200,Mastercard,alex ,Farmingtn Hls               ,MI,United States,01/09/2009 13:59,1/29/09 8:05,42.46444,-83.37639
1/23/09 15:33,Product1,1200,Mastercard,T,Brooklyn                    ,NY,United States,1/23/09 14:18,1/29/09 11:02,40.65,-73.95
1/29/09 12:28,Product1,1200,Mastercard,Alva and Martin,Great Falls                 ,VA,United States,5/21/07 14:57,1/29/09 12:31,38.99806,-77.28861
1/13/09 11:31,Product1,1200,Visa,Anett,Gosport,England,United Kingdom,01/09/2009 11:30,1/29/09 12:48,50.8,-1.1333333
1/29/09 10:09,Product2,3600,Mastercard,Jacqui,Scottsdale                  ,AZ,United States,1/29/09 9:59,1/29/09 12:58,33.50917,-111.89833
1/29/09 15:08,Product1,1200,Visa,KERRY,Sunnyvale                   ,CA,United States,1/29/09 14:04,1/29/09 14:04,37.36889,-122.03528
01/04/2009 5:12,Product1,1200,Visa,DeeDee,Songnae-dong,Soul-t'ukpyolsi,South Korea,12/30/08 8:40,1/29/09 16:41,37.5333333,127.1166667
1/22/09 22:16,Product2,3600,Mastercard,leanne,Clyde Hill                  ,WA,United States,1/17/09 23:28,1/29/09 16:51,47.61056,-122.19944
01/05/2009 19:26,Product1,1200,Visa,katie,Ruschlikon,Zurich,Switzerland,01/05/2009 19:14,1/30/09 1:06,47.3,8.55
01/11/2009 12:22,Product1,1200,Visa,Marina,Minneapolis                 ,MN,United States,01/11/2009 7:18,1/30/09 2:10,44.98,-93.26361
01/02/2009 9:31,Product1,1200,Visa,camilla,Chicago                     ,IL,United States,01/02/2009 9:09,1/30/09 5:35,41.85,-87.65
01/05/2009 11:21,Product1,1200,Visa,pirunkit,Petworth,England,United Kingdom,01/05/2009 5:46,1/30/09 5:54,50.9833333,-0.6
1/17/09 9:49,Product1,1200,Diners,Kathrin,Abu Dhabi,Abu Zaby,United Arab Emirates,2/27/08 20:02,1/30/09 8:45,24.4666667,54.3666667
1/28/09 1:38,Product1,1200,Mastercard,Kate,Stockholm,Stockholm,Sweden,4/16/07 12:58,1/30/09 9:18,59.3333333,18.05
1/19/09 10:32,Product1,1200,Mastercard,Maie,Queen Creek                 ,AZ,United States,01/06/2009 17:57,1/30/09 10:41,33.24861,-111.63361
1/26/09 12:05,Product1,1250,Mastercard,verena,Queen Creek                 ,AZ,United States,01/06/2009 17:57,1/30/09 10:41,33.24861,-111.63361
01/07/2009 18:53,Product1,1200,Visa,Marie-Christine,Durham                      ,NC,United States,12/29/08 9:59,1/30/09 10:46,35.99389,-78.89889
1/26/09 11:38,Product1,1200,Mastercard,Gabriella,Austin                      ,TX,United States,1/26/09 7:16,1/30/09 13:15,30.26694,-97.74278
01/08/2009 13:19,Product1,1200,Mastercard,valerie et nicolas,Glenn Dale                  ,MD,United States,01/08/2009 5:31,1/30/09 17:40,38.9875,-76.82083
01/11/2009 14:56,Product1,1200,Visa,Nicole,Aardal,Sogn og Fjordane,Norway,01/05/2009 5:51,1/31/09 4:21,61.55,6.35
1/30/09 20:36,Product1,1200,Visa,Renee,Edinburg                    ,TX,United States,1/30/09 20:05,1/31/09 4:47,26.30139,-98.16306
01/01/2009 8:09,Product1,1200,Mastercard,Nicole,South Melbourne,Victoria,Australia,12/30/08 0:55,1/31/09 5:40,-37.8333333,144.9666667
1/17/09 11:09,Product1,1200,Mastercard,Joachim,Fortaleza,Ceara,Brazil,1/17/09 10:46,1/31/09 6:42,-3.7166667,-38.5
1/31/09 7:22,Product1,1200,Visa,Monica ,Weston                      ,CT,United States,2/29/08 17:34,1/31/09 6:43,41.20083,-73.38111
1/31/09 9:12,Product1,1200,Visa,Nanci,Reading,England,United Kingdom,8/28/08 10:22,1/31/09 9:08,51.4333333,-1
1/31/09 8:56,Product1,1200,Mastercard,Laura,Coconut Grove               ,FL,United States,1/31/09 8:03,1/31/09 9:22,25.71222,-80.25722
1/31/09 9:00,Product1,1200,Visa,ciara and mike,London,England,United Kingdom,1/31/09 8:32,1/31/09 10:07,51.51334,-0.08895
01/11/2009 14:07,Product1,1200,Visa,Sarah,San Francisco               ,CA,United States,01/11/2009 13:08,1/31/09 10:20,37.775,-122.41833
01/01/2009 12:25,Product2,3600,Mastercard,Anne-line,Zug,Zug,Switzerland,3/29/05 23:14,1/31/09 10:58,47.1666667,8.5166667
1/31/09 11:14,Product2,3600,Mastercard,Ulrika,Scottsdale                  ,AZ,United States,1/31/09 11:10,1/31/09 11:10,33.50917,-111.89833
01/02/2009 9:57,Product1,1200,Amex,leigh,Potomac Falls               ,VA,United States,2/20/05 17:20,1/31/09 11:24,39.05,-77.40111
01/04/2009 13:20,Product1,1200,Mastercard,Nuria,Superior                    ,CO,United States,01/04/2009 12:08,1/31/09 13:17,39.97778,-105.13139
1/22/09 12:32,Product1,1200,Mastercard,Tejal,London,England,United Kingdom,01/02/2008 9:51,1/31/09 14:43,51.52721,0.14559
1/18/09 6:09,Product1,1200,Mastercard,Ignacio,Engleside                   ,VA,United States,5/21/07 18:56,1/31/09 15:33,38.80472,-77.04722
01/08/2009 0:04,Product1,1200,Visa,ZOE,New Plymouth City,Taranaki,New Zealand,01/07/2009 23:34,1/31/09 17:47,-39.0666667,174.0833333
1/24/09 7:14,Product1,1200,Mastercard,nihan,Roanoke                     ,VA,United States,03/02/2008 7:35,1/31/09 19:18,37.20556,-80.03778
1/24/09 11:05,Product1,1200,Visa,alan,Norcross                    ,GA,United States,7/30/07 15:16,1/31/09 19:31,33.94111,-84.21361
01/06/2009 15:12,Product1,1200,Amex,lydia,Sandy Plains                ,GA,United States,9/23/06 8:42,1/31/09 20:48,34.02306,-84.36167
1/24/09 17:06,Product1,1200,Visa,Tracey,Saint Catharines,Ontario,Canada,1/24/09 15:51,1/31/09 21:10,43.1666667,-79.2333333
01/03/2009 9:58,Product1,1200,Visa,Anja,Gainesville                 ,VA,United States,10/19/08 8:27,1/31/09 22:19,38.79556,-77.61417
01/09/2009 16:35,Product1,1200,Diners,Jennifer,Nordstrand,Oslo,Norway,12/29/05 9:26,02/01/2009 4:18,59.8608333,10.7905556
01/12/2009 14:50,Product1,1200,Visa,Holly,Arlington                   ,MA,United States,01/12/2009 9:54,02/01/2009 7:36,42.41528,-71.15694
01/07/2009 13:49,Product1,1200,Diners,megan,West Hills                  ,CA,United States,01/07/2009 12:36,02/01/2009 8:20,34.20111,-118.59722
01/09/2009 19:41,Product1,1200,Mastercard,Tarah,San Jose                    ,CA,United States,01/05/2009 18:02,02/01/2009 9:18,37.33944,-121.89389
1/26/09 4:53,Product1,1200,Visa,Gerardo,London,England,United Kingdom,1/26/09 4:12,02/01/2009 9:48,51.52721,0.14559
1/23/09 21:41,Product1,1200,Visa,Joanne,Oak Park                    ,MI,United States,12/26/08 11:00,02/01/2009 9:51,42.45944,-83.18278
01/06/2009 16:07,Product1,1200,Visa,Margaret,Terrell Hills               ,TX,United States,12/21/08 12:21,02/01/2009 10:06,29.42389,-98.49333
01/10/2009 7:55,Product1,1200,Visa,Laura,Jumeira,Dubayy,United Arab Emirates,01/07/2009 9:47,02/01/2009 10:18,25.2097222,55.2477778
1/28/09 20:44,Product1,1200,Visa,Whitney,Falmouth                    ,VA,United States,1/28/09 19:36,02/01/2009 11:33,38.32389,-77.46861
01/09/2009 3:38,Product1,1200,Visa,Ravinder,Lurgan,Northern Ireland,United Kingdom,06/03/2008 4:22,02/01/2009 11:53,54.4666667,-6.3333333
1/19/09 8:52,Product1,1200,Visa,Pam,Richmond                    ,TX,United States,01/06/2009 15:24,02/01/2009 11:53,29.58194,-95.76056
1/15/09 7:26,Product1,1200,Mastercard,Celina,Den Haag,Zuid-Holland,Netherlands,1/14/09 0:00,02/01/2009 13:17,52.0833333,4.3
1/30/09 19:12,Product1,1200,Diners,Heather,Ooltewah                    ,TN,United States,1/30/09 18:54,02/01/2009 13:51,35.075,-85.06222
01/05/2009 12:41,Product1,1200,Mastercard,Kathryn,Pacific Beach               ,CA,United States,01/05/2009 11:50,02/01/2009 14:28,32.79778,-117.23944
1/28/09 20:59,Product1,1200,Visa,Michele ,Austin                      ,TX,United States,1/28/09 9:40,02/01/2009 15:00,30.26694,-97.74278
01/10/2009 21:36,Product1,1200,Visa,Craig,Seattle                     ,WA,United States,08/10/2008 16:47,02/01/2009 15:27,47.60639,-122.33083
1/25/09 19:59,Product1,1200,Visa,Kim,Seattle                     ,WA,United States,8/13/08 18:27,02/01/2009 16:04,47.60639,-122.33083
01/07/2009 8:03,Product1,1200,Amex,maria,Ottawa,Ontario,Canada,4/17/05 22:28,02/01/2009 18:52,45.4166667,-75.7
1/21/09 9:07,Product1,1200,Visa,Elaine,Vienna                      ,VA,United States,04/02/2008 9:59,02/01/2009 21:07,38.90111,-77.26556
1/23/09 14:43,Product1,1200,Visa,Madison,Torbay,Auckland,New Zealand,1/18/09 11:34,02/01/2009 21:31,-36.7,174.75
01/05/2009 13:07,Product1,1200,Visa,Amanda,Shenfield,England,United Kingdom,01/02/2009 14:27,02/01/2009 22:27,51.6166667,0.3166667
01/06/2009 3:39,Product1,1200,Visa,Krista,Bergen,Hordaland,Norway,9/20/05 1:58,02/02/2009 0:08,60.3911111,5.3247222
1/15/09 15:26,Product1,1200,Visa,Sarah,Bolton,England,United Kingdom,1/15/09 8:16,02/02/2009 0:53,53.5833333,-2.4333333
1/23/09 4:47,Product1,1200,Mastercard,Sarah,Sandymount,Dublin,Ireland,1/16/06 8:48,02/02/2009 2:12,53.335,-6.2113889
01/12/2009 10:05,Product2,3600,Amex,Pamela,Bellinzona,Ticino,Switzerland,09/03/2007 13:23,02/02/2009 5:16,46.2,9.0166667
1/30/09 5:13,Product1,1200,Visa,Christine,Antwerpen,Antwerpen,Belgium,01/03/2006 13:57,02/02/2009 5:45,51.2166667,4.4166667
1/14/09 10:32,Product3,7500,Mastercard,Diana,Campinas,Sao Paulo,Brazil,11/05/2008 7:03,02/02/2009 5:54,-22.9,-47.0833333
01/12/2009 8:13,Product1,1200,Amex,mary,Nacka,Stockholm,Sweden,03/08/2006 4:32,02/02/2009 6:01,59.3,18.1666667
1/27/09 8:11,Product1,1200,Visa,Helena,Fremont                     ,CA,United States,1/27/09 8:05,02/02/2009 6:08,37.54833,-121.9875
1/30/09 17:33,Product1,1200,Visa,nina,Warwick,Queensland,Australia,1/25/09 22:36,02/02/2009 6:13,-28.2333333,152.0166667
